[
  {
    "name": "플레이포레키즈룸(수정)",
    "address": "경기 성남시 수정구 위례서일로 10 2층 203호",
    "lat": 37.4741,
    "lon": 127.1453
  },
  {
    "name": "코네히토 키즈카페",
    "address": "경기 성남시 수정구 위례광장로 45 2층 203호 코네히토 키즈카페",
    "lat": 37.468366831266,
    "lon": 127.140184530768
  },
  {
    "name": "꿀잼키즈룸",
    "address": "경기 성남시 수정구 위례광장로 300 4층 402호 꿀잼키즈룸",
    "lat": 37.4734715546921,
    "lon": 127.14270025965
  },
  {
    "name": "착한토끼 위례하우스",
    "address": "경기 성남시 수정구 창곡동 513-3",
    "lat": 37.4722786585305,
    "lon": 127.150085661957
  },
  {
    "name": "우키키키즈룸",
    "address": "경기 성남시 수정구 창곡동 525-4",
    "lat": 37.4690474305534,
    "lon": 127.14882442569
  },
  {
    "name": "모꼬지키즈",
    "address": "서울 송파구 문정동 121-6",
    "lat": 37.4883263072268,
    "lon": 127.132158547341
  },
  {
    "name": "무키무키 위례점",
    "address": "경기 성남시 수정구 창곡동 562-2",
    "lat": 37.46497157861,
    "lon": 127.139706714939
  },
  {
    "name": "미틈달키즈카페",
    "address": "경기 성남시 수정구 산성동 2125-1",
    "lat": 37.4528225063981,
    "lon": 127.149864818268
  },
  {
    "name": "꼬마노리 키즈파티룸 남위례점",
    "address": "경기 성남시 수정구 창곡동 559-4",
    "lat": 37.4651071340202,
    "lon": 127.137828292957
  },
  {
    "name": "키즈인더룸 위례점",
    "address": "경기 성남시 수정구 창곡동 509-2",
    "lat": 37.4722442580129,
    "lon": 127.142950022755
  },
  {
    "name": "하루종일 키즈룸",
    "address": "경기 성남시 중원구 금광동 687",
    "lat": 37.4428322450917,
    "lon": 127.165278897303
  },
  {
    "name": "아이와 하루 분당야탑점",
    "address": "경기 성남시 분당구 매화로 56 중탑현진원빌딩 3층 301호",
    "lat": 37.4124560109201,
    "lon": 127.134193362728
  },
  {
    "name": "놀풀 분당점",
    "address": "경기 성남시 분당구 야탑동 319-14",
    "lat": 37.4105923653778,
    "lon": 127.13449106338
  },
  {
    "name": "208호",
    "address": "경기 성남시 분당구 야탑로 103 비동 2층 208호",
    "lat": 37.4101301329513,
    "lon": 127.130152226886
  }
]